[
  {
    "lat": "36.7241493",
    "lng": "-85.6874133",
    "id": 6257152,
    "name": "Tompkinsville Drug Co.",
    "phone": "270-487-6155",
    "address": "1513 Edmonton Rd",
    "state": "KY",
    "city": "Tompkinsville",
    "postal": "42167"
  },
  {
    "lat": "35.9497888",
    "lng": "-87.3072445",
    "id": 6257153,
    "name": "Tucker Pharmacy",
    "phone": "615-799-0691",
    "address": "10394 Tidwell Road",
    "state": "TN",
    "city": "Bon Aqua",
    "postal": "37025"
  },
  {
    "lat": "33.5637219",
    "lng": "-101.8896622",
    "id": 6257154,
    "name": "Twin Oaks Pharmacy",
    "phone": "(806) 799-3636",
    "address": "3436 34th St",
    "state": "TX",
    "city": "Lubbock",
    "postal": "79410"
  },
  {
    "lat": "34.051561",
    "lng": "-118.2549921",
    "id": 6257155,
    "name": "Uptown Drug & Gift Shop",
    "phone": "213-612-4300",
    "address": "444 South Flower St.",
    "address2": "Suite 100",
    "state": "CA",
    "city": "Los Angeles",
    "postal": "90071"
  },
  {
    "lat": "33.2221782",
    "lng": "-97.760303",
    "id": 6257156,
    "name": "Valu-Rite Pharmacy",
    "phone": "940-683-2950",
    "address": "709 Woodrow Wilson Ray Circle",
    "state": "TX",
    "city": "Bridgeport",
    "postal": "76426"
  },
  {
    "lat": "42.0779279",
    "lng": "-78.4452644",
    "id": 6257157,
    "name": "Vic Vena Pharmacy",
    "phone": "(716) 372-7761",
    "address": "1322 W. State St",
    "state": "NY",
    "city": "Olean",
    "postal": "14760"
  },
  {
    "lat": "30.1387411",
    "lng": "-94.015395",
    "id": 6257158,
    "name": "Vidor Family Pharmacy",
    "phone": "(409) 769-2406",
    "address": "1130 N. Main Street",
    "state": "TX",
    "city": "Vidor",
    "postal": "77662"
  },
  {
    "lat": "38.899889",
    "lng": "-77.2665188",
    "id": 6257159,
    "name": "Vienna Drug Center",
    "phone": "(703) 938-7111",
    "address": "150 Maple Avenue West",
    "state": "VA",
    "city": "Vienna",
    "postal": "22180"
  },
  {
    "lat": "34.7449714",
    "lng": "-87.6564376",
    "id": 6257160,
    "name": "Village Drugs",
    "phone": "256-381-8060",
    "address": "1001 Avalon Ave.",
    "state": "AL",
    "city": "Muscle Shoals",
    "postal": "35661"
  },
  {
    "lat": "35.9661536",
    "lng": "-78.5109696",
    "id": 6257161,
    "name": "Village Pharmacy of Wake Forest",
    "phone": "(919) 556-2757",
    "address": "900 S Franklin St",
    "address2": "Suite 102",
    "state": "NC",
    "city": "Wake Forest",
    "postal": "27587"
  },
  {
    "lat": "35.5893443",
    "lng": "-84.2376349",
    "id": 6257162,
    "name": "Vonore Drug",
    "phone": "4238846274",
    "address": "1121 Hwy 411",
    "state": "TN",
    "city": "Vonore",
    "postal": "37885"
  },
  {
    "lat": "46.2587468",
    "lng": "-99.5578433",
    "id": 6257163,
    "name": "Wishek Drug",
    "phone": "(701) 452-2368",
    "address": "9 South Centennial Street",
    "state": "ND",
    "city": "Wishek",
    "postal": "58495"
  },
  {
    "lat": "37.0158659",
    "lng": "-94.7354938",
    "id": 6257164,
    "name": "Wolkar Drug",
    "phone": "620-856-5555",
    "address": "1920 Military Ave.",
    "state": "KS",
    "city": "Baxter Springs",
    "postal": "66713"
  },
  {
    "lat": "34.069218",
    "lng": "-118.3037864",
    "id": 6257165,
    "name": "Woori Pharmacy",
    "phone": "213-384-6323",
    "address": "266 S. Harvard Blvd.",
    "address2": "Suite 120",
    "state": "CA",
    "city": "Los Angeles",
    "postal": "90004"
  },
  {
    "lat": "33.2409522",
    "lng": "-84.2653899",
    "id": 6257166,
    "name": "Wynn's Rx Pharmacy",
    "phone": "(770) 227-9432",
    "address": "566 S. 8th Street",
    "state": "GA",
    "city": "Griffin",
    "postal": "30224"
  },
  {
    "lat": "25.6828359",
    "lng": "-80.319548",
    "id": 6257167,
    "name": "Yvette's Flawless",
    "phone": "3052442972",
    "address": "9420 SW 77 Ave",
    "state": "FL",
    "city": "Pinecrest",
    "postal": "33156"
  },
  {
    "lat": "26.801256",
    "lng": "-80.033152",
    "id": 6256970,
    "name": "Access Care Pharmacy",
    "phone": "(561) 660-77869",
    "address": "5070 N. Ocean Drive",
    "address2": "Apt. 10A",
    "state": "FL",
    "city": "Riviera Beach",
    "postal": "33404"
  },
  {
    "lat": "28.019353",
    "lng": "-80.6042",
    "id": 6256971,
    "name": "Acquaviva's Pharmacy",
    "phone": "(321) 725-7188",
    "address": "1555 Port Malabar Blvd NE",
    "address2": "Suite 101",
    "state": "FL",
    "city": "Palm Bay",
    "postal": "32905"
  },
  {
    "lat": "31.9633046",
    "lng": "-83.7772955",
    "id": 6256972,
    "name": "Adams Drug Store",
    "phone": "(229) 273-3433",
    "address": "408-B 16th Ave E",
    "state": "GA",
    "city": "Cordele",
    "postal": "31015"
  },
  {
    "lat": "41.9083156",
    "lng": "-84.031088",
    "id": 6256973,
    "name": "Adrian Family Pharmacy",
    "phone": "(517) 759-3500",
    "address": "1325 N Main Street",
    "address2": "Suite H",
    "state": "MI",
    "city": "Adrian",
    "postal": "49221"
  },
  {
    "lat": "42.2550639",
    "lng": "-77.7898132",
    "id": 6256974,
    "name": "Alfred Pharmacy",
    "phone": "6075879224",
    "address": "36 N Main St.",
    "state": "NY",
    "city": "Alfred",
    "postal": "14802"
  },
  {
    "lat": "30.899474",
    "lng": "-83.332532",
    "id": 6256975,
    "name": "AmeriMed Pharmacy & Equipment",
    "phone": "(229) 253-0067",
    "address": "3782 Old US Hwy 41 N.",
    "state": "GA",
    "city": "Valdosta",
    "postal": "31602"
  },
  {
    "lat": "30.0321392",
    "lng": "-99.1435224",
    "id": 6256976,
    "name": "Apothecary Shoppe",
    "phone": "(830) 257-0732",
    "address": "1228 Bandera Hwy",
    "state": "TX",
    "city": "Kerrville",
    "postal": "78028"
  },
  {
    "lat": "40.1607894",
    "lng": "-111.6100379",
    "id": 6256977,
    "name": "Art City Pharmacy",
    "phone": "(801) 489-5618",
    "address": "405 S. Main Street",
    "state": "UT",
    "city": "Springville",
    "postal": "84664"
  },
  {
    "lat": "26.1974329",
    "lng": "-80.2516816",
    "id": 6256978,
    "name": "Arthur's Original Pharmacy Inc.",
    "phone": "(954) 726-1911",
    "address": "5816 N University Drive",
    "state": "FL",
    "city": "Tamarac",
    "postal": "33321"
  },
  {
    "lat": "30.5714439",
    "lng": "-98.2751257",
    "id": 6256979,
    "name": "Atkins Pharmacy",
    "phone": "8306932972",
    "address": "701 3rd street",
    "state": "TX",
    "city": "Marble Falls",
    "postal": "78654"
  },
  {
    "lat": "33.2983609",
    "lng": "-96.9829124",
    "id": 6256980,
    "name": "Aubrey Pharmacy",
    "phone": "(940) 440-0400",
    "address": "701 S. Hwy 377",
    "state": "TX",
    "city": "Aubrey",
    "postal": "76227"
  },
  {
    "lat": "30.185809",
    "lng": "-81.625728",
    "id": 6256981,
    "name": "Axiom Wellness Center",
    "phone": "(904) 445-1297",
    "address": "10601 San Jose Blvd",
    "address2": "Suite 213",
    "state": "FL",
    "city": "Jacksonville",
    "postal": "32257"
  },
  {
    "lat": "28.853403",
    "lng": "-81.6854883",
    "id": 6256982,
    "name": "Bay Pharmacy",
    "phone": "352-483-9601",
    "address": "2 E Magnolia Ave",
    "state": "FL",
    "city": "Eustis",
    "postal": "32726"
  },
  {
    "lat": "27.8474482",
    "lng": "-80.4884844",
    "id": 6256983,
    "name": "Bay Street Pharmacy",
    "phone": "(772) 589-2043",
    "address": "7746 Bay Street",
    "state": "FL",
    "city": "Sebastian",
    "postal": "32958"
  },
  {
    "lat": "36.0970148",
    "lng": "-75.7137286",
    "id": 6256984,
    "name": "Bear Drugs Inc.",
    "phone": "(252) 261-7999",
    "address": "5200 N Croatan Hwy",
    "address2": "Suite 10 and 11",
    "state": "NC",
    "city": "Kitty Hawk",
    "postal": "27949"
  },
  {
    "lat": "37.8127089",
    "lng": "-88.4401233",
    "id": 6256985,
    "name": "Beck's Drugs Oxygen & Medical Equipment",
    "phone": "(618) 273-8111",
    "address": "1409 Locust Street",
    "state": "IL",
    "city": "Eldorado",
    "postal": "62930"
  },
  {
    "lat": "41.2373217",
    "lng": "-103.6627059",
    "id": 6256986,
    "name": "Bemis Drug",
    "phone": "(308) 235-3936",
    "address": "129 S Chestnut St",
    "state": "NE",
    "city": "Kimball",
    "postal": "69145"
  },
  {
    "lat": "33.4909155",
    "lng": "-111.6578047",
    "id": 6256987,
    "name": "Ben's Pharmacy",
    "phone": "(480) 985-6665",
    "address": "8009 E Vista Canyon",
    "state": "AZ",
    "city": "Mesa",
    "postal": "85207"
  },
  {
    "lat": "40.2627176",
    "lng": "-75.8086069",
    "id": 6256988,
    "name": "Birdsboro Pharmacy",
    "phone": "(610) 582-4005",
    "address": "200 W 1st Street",
    "address2": "Suite #3",
    "state": "PA",
    "city": "Birdsboro",
    "postal": "19508"
  },
  {
    "lat": "38.606099",
    "lng": "-78.7987066",
    "id": 6256989,
    "name": "Broadway Drug Center",
    "phone": "5408963503",
    "address": "169 E Springbrook Rd",
    "state": "VA",
    "city": "Broadway",
    "postal": "22815"
  },
  {
    "lat": "44.3112871",
    "lng": "-96.7880928",
    "id": 6256990,
    "name": "Brothers Pharmacy and Gifts",
    "phone": "(605) 692-2088",
    "address": "1004 6th Street",
    "state": "SD",
    "city": "Brookings",
    "postal": "57006"
  },
  {
    "lat": "38.3139283",
    "lng": "-88.9337914",
    "id": 6256991,
    "name": "Byrd-Watson Pharmacy",
    "phone": "(618) 244-5400",
    "address": "3401 Broadway St",
    "state": "IL",
    "city": "Mount Vernon",
    "postal": "62864"
  },
  {
    "lat": "38.5279608",
    "lng": "-89.1510216",
    "id": 6256992,
    "name": "Byrd-Watson Pharmacy - Centralia",
    "phone": "(618) 532-2200",
    "address": "1071 W. Broadway",
    "state": "IL",
    "city": "Centralia",
    "postal": "62801"
  },
  {
    "lat": "34.143876",
    "lng": "-77.8920813",
    "id": 6256993,
    "name": "Cape Fear Pharmacy",
    "phone": "(910) 798-0900",
    "address": "5235 S. College Road",
    "state": "NC",
    "city": "Wilmington",
    "postal": "28412"
  },
  {
    "lat": "33.8307069",
    "lng": "-118.2900017",
    "id": 6256994,
    "name": "Carson Pharmacy",
    "phone": "(310) 214-8282",
    "address": "21720 South Vermont Ave.",
    "address2": "Suite 101",
    "state": "CA",
    "city": "Torrance",
    "postal": "90502"
  },
  {
    "lat": "45.3169371",
    "lng": "-85.2590279",
    "id": 6256995,
    "name": "Central Drug Store",
    "phone": "(231) 547-2424",
    "address": "301 Bridge Street",
    "state": "MI",
    "city": "Charlevoix",
    "postal": "49720"
  },
  {
    "lat": "37.1140873",
    "lng": "-85.3013016",
    "id": 6256996,
    "name": "Certacare Pharmacy",
    "phone": "2703859139",
    "address": "937 Campbellsville Rd",
    "state": "KY",
    "city": "Columbia",
    "postal": "42728"
  },
  {
    "lat": "30.8630075",
    "lng": "-83.2833362",
    "id": 6256997,
    "name": "Chancy Drugs",
    "phone": "(229) 245-3653",
    "address": "2333 North Ashley Street",
    "state": "GA",
    "city": "Valdosta",
    "postal": "31602"
  },
  {
    "lat": "45.3128415",
    "lng": "-92.3617276",
    "id": 6256998,
    "name": "Chet Johnson Drug",
    "phone": "715-268-8121",
    "address": "204 Keller Ave N",
    "state": "WI",
    "city": "Amery",
    "postal": "54001"
  },
  {
    "lat": "30.2937694",
    "lng": "-90.6402095",
    "id": 6256999,
    "name": "Chris' Pharmacy & Gifts",
    "phone": "2256986000",
    "address": "18525 Hwy 22",
    "state": "LA",
    "city": "Maurepas",
    "postal": "70449"
  },
  {
    "lat": "41.2680623",
    "lng": "-110.9659914",
    "id": 6257000,
    "name": "City Drug",
    "phone": "3077894000",
    "address": "131 10th street",
    "state": "WY",
    "city": "Evanston",
    "postal": "82930"
  },
  {
    "lat": "32.4790018",
    "lng": "-99.6974166",
    "id": 6257001,
    "name": "Clark's Big Country Pharmacy",
    "phone": "3257044207",
    "address": "1640 State Highway 351",
    "state": "TX",
    "city": "Abilene",
    "postal": "79601"
  },
  {
    "lat": "33.5753531",
    "lng": "-101.8961898",
    "id": 6257002,
    "name": "Clark's Hub City Pharmacy",
    "phone": "806-749-6133",
    "address": "3716 22nd St",
    "state": "TX",
    "city": "Lubbock",
    "postal": "79410"
  },
  {
    "lat": "33.1813934",
    "lng": "-102.2652347",
    "id": 6257003,
    "name": "Clinic Pharmacy",
    "phone": "(806) 637-7049",
    "address": "901 Tahoka Rd",
    "state": "TX",
    "city": "Brownfield",
    "postal": "79316"
  },
  {
    "lat": "35.2875145",
    "lng": "-93.1676511",
    "id": 6257004,
    "name": "Cobb's Westside Pharmacy",
    "phone": "(479) 968-7180",
    "address": "108 Skyline Drive, Suite B",
    "state": "AR",
    "city": "Russellville",
    "postal": "72801"
  },
  {
    "lat": "29.9681131",
    "lng": "-98.9134319",
    "id": 6257005,
    "name": "Comfort Pharmacy - The Drug Shop",
    "phone": "(800) 597-5459",
    "address": "404 Highway 27",
    "state": "TX",
    "city": "Comfort",
    "postal": "78013"
  },
  {
    "lat": "38.6432879",
    "lng": "-121.1787741",
    "id": 6257006,
    "name": "Complete Care Pharmacy",
    "phone": "9163658484",
    "address": "1050 Iron Point Rd",
    "state": "CA",
    "city": "Folsom",
    "postal": "95630"
  },
  {
    "lat": "38.6104796",
    "lng": "-89.5307255",
    "id": 6257007,
    "name": "Comprehensive Care Pharmacy",
    "phone": "(618)526-8040",
    "address": "117 Clintonian Plaza",
    "state": "IL",
    "city": "Breese",
    "postal": "62230"
  },
  {
    "lat": "33.2786165",
    "lng": "-87.0882134",
    "id": 6257008,
    "name": "Curren Pharmacy",
    "phone": "205-477-7797",
    "address": "22586 Highway 216",
    "state": "AL",
    "city": "McCalla",
    "postal": "35111"
  },
  {
    "lat": "25.8099814",
    "lng": "-80.3248358",
    "id": 6257009,
    "name": "D & S Chiro Rehab Center",
    "phone": "305-200-5331",
    "address": "3901 NW 79th Ave",
    "address2": "Suite 122",
    "state": "FL",
    "city": "Doral",
    "postal": "33166"
  },
  {
    "lat": "39.1643609",
    "lng": "-84.6987909",
    "id": 6257010,
    "name": "Day's Miami Heights Pharmacy",
    "phone": "(513) 941-4011",
    "address": "7567 Bridgetown Rd.",
    "state": "OH",
    "city": "Cincinnati",
    "postal": "45248"
  },
  {
    "lat": "26.4641083",
    "lng": "-80.068444",
    "id": 6257011,
    "name": "Delray Shores Pharmacy",
    "phone": "(561) 272-2124",
    "address": "124 NE 5th Ave",
    "state": "FL",
    "city": "Delray Beach",
    "postal": "33483"
  },
  {
    "lat": "39.017703",
    "lng": "-85.0578877",
    "id": 6257012,
    "name": "Deville's Dillsboro Drugs",
    "phone": "812-432-5684",
    "address": "12836 North Street",
    "state": "IN",
    "city": "Dillsboro",
    "postal": "47018"
  },
  {
    "lat": "31.210772",
    "lng": "-83.2494716",
    "id": 6257013,
    "name": "Dogwood Pharmacy",
    "phone": "(229) 316-8200",
    "address": "501 N Davis St.",
    "state": "GA",
    "city": "Nashville",
    "postal": "31639"
  },
  {
    "lat": "26.1248744",
    "lng": "-80.2592372",
    "id": 6257014,
    "name": "Dr. Arthur Segall",
    "phone": "954-384-2555",
    "address": "201 NW 82nd Ave",
    "address2": "Suite 102",
    "state": "FL",
    "city": "Plantation",
    "postal": "33324"
  },
  {
    "lat": "26.1315189",
    "lng": "-80.3242048",
    "id": 6257015,
    "name": "Dr. Cheryl Yelverton",
    "phone": "954-258-5019",
    "address": "13160 NW 8th Court",
    "state": "FL",
    "city": "Sunrise",
    "postal": "33325"
  },
  {
    "lat": "26.1489619",
    "lng": "-80.2622643",
    "id": 6257016,
    "name": "Dr. Gary Luckman",
    "phone": "9544743262",
    "address": "8329 W Sunrise Blvd",
    "state": "FL",
    "city": "Plantation",
    "postal": "33322"
  },
  {
    "lat": "26.1387338",
    "lng": "-80.2394887",
    "id": 6257017,
    "name": "Dr. Jeffrey Greiff",
    "phone": "(954) 583-4647",
    "address": "6782 W. Sunrise Blvd.",
    "state": "FL",
    "city": "Plantation",
    "postal": "33313"
  },
  {
    "lat": "26.1429457",
    "lng": "-80.2867039",
    "id": 6257018,
    "name": "Dr. Jose Alvarez",
    "phone": "954-478-0495",
    "address": "1441 NW 101 Terrace",
    "state": "FL",
    "city": "Plantation",
    "postal": "33322"
  },
  {
    "lat": "25.6828359",
    "lng": "-80.319548",
    "id": 6257019,
    "name": "Dr. Michael P Newman",
    "phone": "3056661402",
    "address": "9420 SW 77th Ave",
    "address2": "Suite 100",
    "state": "FL",
    "city": "Miami",
    "postal": "33156"
  },
  {
    "lat": "35.0925224",
    "lng": "-106.667126",
    "id": 6257020,
    "name": "Duran Central Pharmacy",
    "phone": "(505) 247-4141",
    "address": "1815 Central Avenue NW",
    "state": "NM",
    "city": "Albuquerque",
    "postal": "87104"
  },
  {
    "lat": "47.7411084",
    "lng": "-121.9857392",
    "id": 6257021,
    "name": "Duvall Family Drugs",
    "phone": "(425)788-2644",
    "address": "15602 Main Street NE",
    "address2": "#210",
    "state": "WA",
    "city": "Duvall",
    "postal": "98019"
  },
  {
    "lat": "34.1636363",
    "lng": "-98.0012293",
    "id": 6257022,
    "name": "Eck Drug Store",
    "phone": "(580) 228-2383",
    "address": "101 S Main St",
    "state": "OK",
    "city": "Waurika",
    "postal": "73573"
  },
  {
    "lat": "35.7431128",
    "lng": "-95.3400318",
    "id": 6257023,
    "name": "Economy Pharmacy",
    "phone": "(918) 682-2418",
    "address": "412 North York Street",
    "state": "OK",
    "city": "Muskogee",
    "postal": "74403"
  },
  {
    "lat": "25.734756",
    "lng": "-80.2878211",
    "id": 6257024,
    "name": "Estheticlub Medspa",
    "phone": "3059741818",
    "address": "5751A Bird Rd",
    "state": "FL",
    "city": "Miami",
    "postal": "33155"
  },
  {
    "lat": "36.3900798",
    "lng": "-97.8645075",
    "id": 6257025,
    "name": "Family Pharmacy",
    "phone": "(580) 233-4244",
    "address": "915 E. Owen K Garriott Road",
    "address2": "Suite M",
    "state": "OK",
    "city": "Enid",
    "postal": "73701"
  },
  {
    "lat": "25.7733164",
    "lng": "-80.2159445",
    "id": 6257026,
    "name": "Farmacia 2224",
    "phone": "(305) 649-2222",
    "address": "1266 W Flagler St",
    "state": "FL",
    "city": "Miami",
    "postal": "33135"
  },
  {
    "lat": "25.8402785",
    "lng": "-80.2822007",
    "id": 6257027,
    "name": "Farmacia Cardenas",
    "phone": "3058876189",
    "address": "2030 Palm Ave",
    "state": "FL",
    "city": "Hialeah",
    "postal": "33010"
  },
  {
    "lat": "18.4284642",
    "lng": "-66.7875321",
    "id": 6257028,
    "name": "Farmacia El Norte",
    "phone": "787-309-7759",
    "address": "PO Box 791",
    "state": "PR",
    "city": "Hatillo",
    "postal": "659"
  },
  {
    "lat": "25.6514293",
    "lng": "-80.2762755",
    "id": 6257029,
    "name": "Florida Cryo Body Spa LLC",
    "phone": "3057853676",
    "address": "1130 San Pedro Ave",
    "state": "FL",
    "city": "Coral Gables",
    "postal": "33156"
  },
  {
    "lat": "36.8407254",
    "lng": "-81.5056347",
    "id": 6257030,
    "name": "Food City Pharmacy",
    "phone": "276-783-5761",
    "address": "910 N Main Street #100",
    "state": "VA",
    "city": "Marion",
    "postal": "24354"
  },
  {
    "lat": "31.3246535",
    "lng": "-89.3470197",
    "id": 6257031,
    "name": "Freedom Pharmacy",
    "phone": "601-450-6979",
    "address": "3902 Hardy Street",
    "state": "MS",
    "city": "Hattiesburg",
    "postal": "39402"
  },
  {
    "lat": "26.1818363",
    "lng": "-80.1466878",
    "id": 6257032,
    "name": "Garden Drugs & Medical Supplies",
    "phone": "(954) 776-1521",
    "address": "4400 N Andrews Avenue",
    "state": "FL",
    "city": "Fort Lauderdale",
    "postal": "33309"
  },
  {
    "lat": "46.8400835",
    "lng": "-100.7274399",
    "id": 6257033,
    "name": "Gateway Healthmart Pharmacy",
    "phone": "(701)425-0789",
    "address": "3103 Yorktown Dr.",
    "address2": "Suite 2",
    "state": "ND",
    "city": "Bismarck",
    "postal": "58503"
  },
  {
    "lat": "36.104974",
    "lng": "-95.9136434",
    "id": 6257034,
    "name": "GenScripts Pharmacy",
    "phone": "918-828-9696",
    "address": "3980 South Hudson Ave.",
    "state": "OK",
    "city": "Tulsa",
    "postal": "74135"
  },
  {
    "lat": "32.1962063",
    "lng": "-95.8539718",
    "id": 6257035,
    "name": "Gibson Pharmacy",
    "phone": "(903) 675-7069",
    "address": "600 South Palestine Street",
    "state": "TX",
    "city": "Athens",
    "postal": "75751"
  },
  {
    "lat": "31.5307168",
    "lng": "-83.8244903",
    "id": 6257036,
    "name": "Glenn's Corner Pharmacy",
    "phone": "2297763600",
    "address": "631 E Franklin Street",
    "state": "GA",
    "city": "Sylvester",
    "postal": "31791"
  },
  {
    "lat": "42.9264531",
    "lng": "-123.2785151",
    "id": 6257037,
    "name": "Gordon's Pharmacy",
    "phone": "(541) 839-4452",
    "address": "314 S. Main Street",
    "state": "OR",
    "city": "Canyonville",
    "postal": "97417"
  },
  {
    "lat": "42.4373712",
    "lng": "-123.3284427",
    "id": 6257038,
    "name": "Grants Pass Pharmacy",
    "phone": "5414764262",
    "address": "414 SW 6th St",
    "state": "OR",
    "city": "Grants Pass",
    "postal": "97526"
  },
  {
    "lat": "42.5423879",
    "lng": "-83.13551",
    "id": 6257039,
    "name": "H & H Wholesale, Inc.",
    "phone": "(800) 995-5750",
    "address": "1099 Rochester Road",
    "state": "MI",
    "city": "Troy",
    "postal": "48083"
  },
  {
    "lat": "35.6098909",
    "lng": "-82.3411835",
    "id": 6257040,
    "name": "Healthridge Pharmacy",
    "phone": "(828) 669-9970",
    "address": "3130 US 70 HWY",
    "state": "NC",
    "city": "Black Mountain",
    "postal": "28711"
  },
  {
    "lat": "39.7042454",
    "lng": "-84.1701586",
    "id": 6257041,
    "name": "Heartland Pharmacy",
    "phone": "937-723-9075",
    "address": "3000 Far Hills Ave",
    "state": "OH",
    "city": "Kettering",
    "postal": "45429"
  },
  {
    "lat": "34.7392869",
    "lng": "-88.9491112",
    "id": 6257042,
    "name": "Hollis Discount Pharmacy",
    "phone": "662-837-7323",
    "address": "1008 City Ave N.",
    "state": "MS",
    "city": "Ripley",
    "postal": "38663"
  },
  {
    "lat": "34.6871929",
    "lng": "-82.8353468",
    "id": 6257043,
    "name": "Hubbard Young Pharmacy",
    "phone": "(864) 654-1771",
    "address": "402 College Ave",
    "address2": "Suite #1",
    "state": "SC",
    "city": "Clemson",
    "postal": "29631"
  },
  {
    "lat": "25.7921545",
    "lng": "-80.3341283",
    "id": 6257044,
    "name": "Illumina Medical Centers",
    "phone": "305-254-8900 ext. 129",
    "address": "1914 NW 84th Ave.",
    "state": "FL",
    "city": "Doral",
    "postal": "33126"
  },
  {
    "lat": "33.9699642",
    "lng": "-86.4531236",
    "id": 6257045,
    "name": "J & M Pharmacy",
    "phone": "2052742740",
    "address": "2040 2nd Ave East, Suite C",
    "state": "AL",
    "city": "Oneonta",
    "postal": "35121"
  },
  {
    "lat": "38.9945355",
    "lng": "-79.1237618",
    "id": 6257046,
    "name": "Judy's Drug Store",
    "phone": "3042571044",
    "address": "24 N Main St",
    "state": "WV",
    "city": "Petersburg",
    "postal": "26847"
  },
  {
    "lat": "34.2339696",
    "lng": "-102.7386819",
    "id": 6257047,
    "name": "K&K Pharmacy",
    "phone": "(806) 392-1300",
    "address": "1411 W American Blvd",
    "state": "TX",
    "city": "Muleshoe",
    "postal": "79347"
  },
  {
    "lat": "32.4329964",
    "lng": "-96.2245293",
    "id": 6257048,
    "name": "Kemp Family Pharmacy",
    "phone": "(903) 498-8523",
    "address": "1224 S. Elm Street",
    "state": "TX",
    "city": "Kemp",
    "postal": "75143"
  },
  {
    "lat": "45.3038199",
    "lng": "-93.5673999",
    "id": 6257049,
    "name": "Kemper Drug",
    "phone": "(763) 441-1353",
    "address": "323 Jackson Ave",
    "state": "MN",
    "city": "Elk River",
    "postal": "55330"
  },
  {
    "lat": "35.0872219",
    "lng": "-84.034152",
    "id": 6257050,
    "name": "King's Pharmacy",
    "phone": "(828) 837-7474",
    "address": "30 Peachtree Street",
    "state": "NC",
    "city": "Murphy",
    "postal": "28906"
  },
  {
    "lat": "31.0413825",
    "lng": "-83.0746356",
    "id": 6257051,
    "name": "Lakeland Drugs",
    "phone": "2294823677",
    "address": "42 W Main Street",
    "state": "GA",
    "city": "Lakeland",
    "postal": "31635"
  },
  {
    "lat": "47.9799436",
    "lng": "-102.4868834",
    "id": 6257052,
    "name": "Larsen Service Drug - New Town",
    "phone": "(701) 627-2410",
    "address": "334 Main St.",
    "state": "ND",
    "city": "New Town",
    "postal": "58763"
  },
  {
    "lat": "47.8031368",
    "lng": "-103.282812",
    "id": 6257053,
    "name": "Larsen Service Drug, Inc.",
    "phone": "(701) 444-2410",
    "address": "244 Main St N",
    "state": "ND",
    "city": "Watford City",
    "postal": "58854"
  },
  {
    "lat": "26.1194655",
    "lng": "-80.1307419",
    "id": 6257054,
    "name": "Las Olas Chemist",
    "phone": "(954) 462-4166",
    "address": "1211 E Las Olas Blvd",
    "state": "FL",
    "city": "Fort Lauderdale",
    "postal": "33301"
  },
  {
    "lat": "32.0142462",
    "lng": "-102.1437532",
    "id": 6257055,
    "name": "LifeScript",
    "phone": "(432) 290-5328",
    "address": "4425 W. Wadley Ave.",
    "address2": "Suite 200",
    "state": "TX",
    "city": "Midland",
    "postal": "79707"
  },
  {
    "lat": "37.4347011",
    "lng": "-94.7044201",
    "id": 6257056,
    "name": "Lindburg Pharmacy North",
    "phone": "(620) 231-3410",
    "address": "2720 N Broadway St.",
    "state": "KS",
    "city": "Pittsburg",
    "postal": "66762"
  },
  {
    "lat": "35.3110035",
    "lng": "-120.8339675",
    "id": 6257057,
    "name": "Los Osos Rexall",
    "phone": "8055281017",
    "address": "989 Los Osos Valley Rd",
    "state": "CA",
    "city": "Los Osos",
    "postal": "93402"
  },
  {
    "lat": "34.390104",
    "lng": "-83.6633304",
    "id": 6257058,
    "name": "Lula Pharmacy",
    "phone": "(770) 869-3616",
    "address": "6102 Banks Street",
    "state": "GA",
    "city": "Lula",
    "postal": "30554"
  },
  {
    "lat": "34.6504498",
    "lng": "-78.9998772",
    "id": 6257059,
    "name": "Lumberton Drugs",
    "phone": "(910) 671-9000",
    "address": "4307 Fayetteville Rd.",
    "state": "NC",
    "city": "Lumberton",
    "postal": "28358"
  },
  {
    "lat": "37.8707583",
    "lng": "-109.3432579",
    "id": 6257060,
    "name": "Main Street Drug & Boutique",
    "phone": "435-587-2302",
    "address": "140 S Main St",
    "state": "UT",
    "city": "Monticello",
    "postal": "84535"
  },
  {
    "lat": "40.1235661",
    "lng": "-111.5984863",
    "id": 6257061,
    "name": "Maple Mountain Pharmacy",
    "phone": "(801) 515-6048",
    "address": "724 South 1600 West",
    "state": "UT",
    "city": "Mapleton",
    "postal": "84664"
  },
  {
    "lat": "44.0155803",
    "lng": "-73.1698076",
    "id": 6257062,
    "name": "Marble Works Pharmacy",
    "phone": "(802) 388-3784",
    "address": "99 Maple Street",
    "state": "VT",
    "city": "Middlebury",
    "postal": "5753"
  },
  {
    "lat": "32.0578723",
    "lng": "-95.5032844",
    "id": 6257063,
    "name": "Maxwell Pharmacy",
    "phone": "(903) 876-2323",
    "address": "626 N. Hwy 155",
    "state": "TX",
    "city": "Frankston",
    "postal": "75763"
  },
  {
    "lat": "35.494562",
    "lng": "-86.4715555",
    "id": 6257064,
    "name": "McGee's Prescription Shop Inc",
    "phone": "(931) 684-7936",
    "address": "842 Union Street",
    "state": "TN",
    "city": "Shelbyville",
    "postal": "37160"
  },
  {
    "lat": "35.4254076",
    "lng": "-97.0962822",
    "id": 6257065,
    "name": "McLoud Clinic Pharmacy",
    "phone": "(405)964-3956",
    "address": "704 South 8th St",
    "address2": "Suite B",
    "state": "OK",
    "city": "McLoud",
    "postal": "74851"
  },
  {
    "lat": "39.8717404",
    "lng": "-74.8109128",
    "id": 6257066,
    "name": "Medford Rx",
    "phone": "(609) 654-6884",
    "address": "639 Stokes Road",
    "address2": "Suite 101",
    "state": "NJ",
    "city": "Medford",
    "postal": "8055"
  },
  {
    "lat": "34.5965252",
    "lng": "-92.4897464",
    "id": 6257067,
    "name": "Medic Pharmacy - Bryant",
    "phone": "501-847-3596",
    "address": "101 NW 3rd St.",
    "address2": "Suite A",
    "state": "AR",
    "city": "Bryant",
    "postal": "72022"
  },
  {
    "lat": "42.5793773",
    "lng": "-71.2872542",
    "id": 6257068,
    "name": "Medical Center Pharmacy",
    "phone": "(978) 663-6584",
    "address": "221 Boston Road",
    "state": "MA",
    "city": "North Billerica",
    "postal": "1862"
  },
  {
    "lat": "26.1248744",
    "lng": "-80.2592372",
    "id": 6257069,
    "name": "Medical Plaza Pharmacy",
    "phone": "(954) 474-3887",
    "address": "201 NW 82 Avenue",
    "address2": "Suite 100",
    "state": "FL",
    "city": "Plantation",
    "postal": "33324"
  },
  {
    "lat": "35.2017103",
    "lng": "-101.9212431",
    "id": 6257070,
    "name": "Medical Square Pharmacy",
    "phone": "8063507451",
    "address": "1215 S Coulter St",
    "address2": "Suite 101",
    "state": "TX",
    "city": "Amarillo",
    "postal": "79106"
  },
  {
    "lat": "38.4245444",
    "lng": "-78.8487045",
    "id": 6257071,
    "name": "Medicap Pharmacy #8366",
    "phone": "(540) 246-3890",
    "address": "2091 Pro Pointe Ln",
    "state": "VA",
    "city": "Harrisonburg",
    "postal": "22801"
  },
  {
    "lat": "34.9749301",
    "lng": "-80.5186442",
    "id": 6257072,
    "name": "Medicap Pharmacy 8160",
    "phone": "7042917070",
    "address": "751 East Roosevelt Blvd",
    "state": "NC",
    "city": "Monroe",
    "postal": "28112"
  },
  {
    "lat": "41.9850682",
    "lng": "-92.5798203",
    "id": 6257073,
    "name": "Medicap Pharmacy- Toledo",
    "phone": "(641) 484-6198",
    "address": "108 2nd Avenue West",
    "state": "IA",
    "city": "Toledo",
    "postal": "52342"
  },
  {
    "lat": "35.0844048",
    "lng": "-92.4551485",
    "id": 6257074,
    "name": "Medicine Shoppe #1906",
    "phone": "(314) 518-2427",
    "address": "2125 College Avenue",
    "state": "AR",
    "city": "Conway",
    "postal": "72034"
  },
  {
    "lat": "37.0963665",
    "lng": "-84.5920959",
    "id": 6257075,
    "name": "Medicine Shoppe of Somerset",
    "phone": "(606) 679-9227",
    "address": "900 E Mt. Vernon Street",
    "state": "KY",
    "city": "Somerset",
    "postal": "42501"
  },
  {
    "lat": "42.7250823",
    "lng": "-92.4839409",
    "id": 6257076,
    "name": "Meyer Pharmacy",
    "phone": "(319) 352-3120",
    "address": "110 10th Street SW",
    "state": "IA",
    "city": "Waverly",
    "postal": "50677"
  },
  {
    "lat": "25.6849281",
    "lng": "-80.3408955",
    "id": 6257077,
    "name": "Miami Sports Medicine",
    "phone": "(305) 275-5677",
    "address": "8940 N. Kendall Drive",
    "address2": "Suite 101E",
    "state": "FL",
    "city": "Miami",
    "postal": "33176"
  },
  {
    "lat": "34.0675995",
    "lng": "-118.406865",
    "id": 6257078,
    "name": "Mickey Fine Pharmacy",
    "phone": "310-271-6123",
    "address": "433 N Roxbury Drive",
    "state": "CA",
    "city": "Beverly Hills",
    "postal": "90210"
  },
  {
    "lat": "39.7556929",
    "lng": "-99.324048",
    "id": 6257079,
    "name": "Midwest Family Health",
    "phone": "785-540-4143",
    "address": "346 State St.",
    "state": "KS",
    "city": "Phillipsburg",
    "postal": "67661"
  },
  {
    "lat": "26.724189",
    "lng": "-80.142452",
    "id": 6257080,
    "name": "Mindi Benarde",
    "phone": "561-275-2637",
    "address": "6464 Paradise Cove",
    "state": "FL",
    "city": "West Palm Beach",
    "postal": "33411"
  },
  {
    "lat": "32.2413205",
    "lng": "-92.7123294",
    "id": 6257081,
    "name": "Mitchell's Pharmacy",
    "phone": "(318) 259-7466",
    "address": "202 East Main Street",
    "state": "LA",
    "city": "Jonesboro",
    "postal": "71251"
  },
  {
    "lat": "31.4577257",
    "lng": "-83.5212469",
    "id": 6257082,
    "name": "Moon's Pharmacy",
    "phone": "(229) 382-7445",
    "address": "717 W 2nd Street",
    "state": "GA",
    "city": "Tifton",
    "postal": "31794"
  },
  {
    "lat": "27.7064896",
    "lng": "-97.3606501",
    "id": 6257083,
    "name": "Moore's Compounding Pharmacy",
    "phone": "361-364-1416",
    "address": "5945 McArdle Rd.",
    "address2": "Suite 101",
    "state": "TX",
    "city": "Corpus Christi",
    "postal": "78412"
  },
  {
    "lat": "40.8853694",
    "lng": "-111.8666865",
    "id": 6257084,
    "name": "Mountain View Pharmacy",
    "phone": "(801) 295-3439",
    "address": "425 Medical Drive",
    "state": "UT",
    "city": "Bountiful",
    "postal": "84010"
  },
  {
    "lat": "26.1814265",
    "lng": "-97.6837663",
    "id": 6257085,
    "name": "Muniz Rio Grande Pharmacy",
    "phone": "(956) 423-1753",
    "address": "1117 S Commerce",
    "state": "TX",
    "city": "Harlingen",
    "postal": "78550"
  },
  {
    "lat": "26.1025158",
    "lng": "-80.2660106",
    "id": 6257086,
    "name": "Neighborhood Drugs of Davie",
    "phone": "(954) 424-3784",
    "address": "8844 W State Road 84",
    "address2": "Unit B",
    "state": "FL",
    "city": "Davie",
    "postal": "33324"
  },
  {
    "lat": "37.0151267",
    "lng": "-81.959725",
    "id": 6257087,
    "name": "New Garden Pharmacy",
    "phone": "(276) 873-6132",
    "address": "4697 Redbud Highway",
    "state": "VA",
    "city": "Honaker",
    "postal": "24260"
  },
  {
    "lat": "44.8054139",
    "lng": "-68.7621473",
    "id": 6257088,
    "name": "Northern Light Pharmacy",
    "phone": "(207) 947-8369",
    "address": "210 State Street",
    "state": "ME",
    "city": "Bangor",
    "postal": "4401"
  },
  {
    "lat": "31.8025581",
    "lng": "-97.0919367",
    "id": 6257089,
    "name": "Old Corner Drug",
    "phone": "254-826-5122",
    "address": "200 North Main St.",
    "state": "TX",
    "city": "West",
    "postal": "76691"
  },
  {
    "lat": "42.0772048",
    "lng": "-78.4460516",
    "id": 6257090,
    "name": "Olean Wellness Store",
    "phone": "(716) 378-0346",
    "address": "1403 West State Street",
    "state": "NY",
    "city": "Olean",
    "postal": "14760"
  },
  {
    "lat": "25.7040759",
    "lng": "-80.3020719",
    "id": 6257091,
    "name": "Orthopaedic & Sports Medicine Center of Miami",
    "phone": "(305) 661-7601",
    "address": "6701 Sunset Drive",
    "address2": "Suite 201",
    "state": "FL",
    "city": "South Miami",
    "postal": "33143"
  },
  {
    "lat": "26.112798",
    "lng": "-80.259226",
    "id": 6257092,
    "name": "Orthopaedic Center of South Florida",
    "phone": "(954) 473-6344",
    "address": "600 S Pine Island Road",
    "address2": "Suite 300",
    "state": "FL",
    "city": "Plantation",
    "postal": "33324"
  },
  {
    "lat": "36.87436",
    "lng": "-94.878269",
    "id": 6257093,
    "name": "Osborn Drugs",
    "phone": "918-542-4444",
    "address": "11 West Central",
    "state": "OK",
    "city": "Miami",
    "postal": "74354"
  },
  {
    "lat": "36.6392417",
    "lng": "-95.1562652",
    "id": 6257094,
    "name": "Osborn Drugs - Vinita",
    "phone": "(918) 256-6459",
    "address": "207 W. Illinois Ave",
    "state": "OK",
    "city": "Vinita",
    "postal": "74301"
  },
  {
    "lat": "47.7590525",
    "lng": "-122.2555265",
    "id": 6257095,
    "name": "Ostroms Drug & Gift",
    "phone": "425-486-7711",
    "address": "6414 NE Bothell Way",
    "state": "WA",
    "city": "Kenmore",
    "postal": "98028"
  },
  {
    "lat": "40.0310015",
    "lng": "-111.7540821",
    "id": 6257096,
    "name": "Payson Rx Express",
    "phone": "801-609-2300",
    "address": "869 S Turf Farm Rd",
    "state": "UT",
    "city": "Payson",
    "postal": "84651"
  },
  {
    "lat": "30.2381057",
    "lng": "-97.7891319",
    "id": 6257097,
    "name": "People's Pharmacy #2",
    "phone": "(512) 459-9090",
    "address": "3801 S Lamar Blvd",
    "address2": "Suite B",
    "state": "TX",
    "city": "Austin",
    "postal": "78704"
  },
  {
    "lat": "30.2755706",
    "lng": "-97.8165281",
    "id": 6257098,
    "name": "Peoples Pharmacy #3 - Westlake",
    "phone": "512-327-6321",
    "address": "4201 Westbank Drive",
    "state": "TX",
    "city": "Austin",
    "postal": "78746"
  },
  {
    "lat": "30.3089592",
    "lng": "-97.7411398",
    "id": 6257099,
    "name": "Peoples Pharmacy- N Lamar",
    "phone": "(512) 302-4841",
    "address": "4018 N Lamar Blvd",
    "state": "TX",
    "city": "Austin",
    "postal": "78756"
  },
  {
    "lat": "32.0367356",
    "lng": "-102.1133433",
    "id": 6257100,
    "name": "Permian Wellness",
    "phone": "432-695-6099",
    "address": "4519 N. Garfield St.",
    "address2": "Suite 15",
    "state": "TX",
    "city": "Midland",
    "postal": "79705"
  },
  {
    "lat": "56.8125",
    "lng": "-132.9555556",
    "id": 6257101,
    "name": "Petersburg Medical Center",
    "phone": "(907) 772-4291 x 5705",
    "address": "P.O. Box 589",
    "state": "AK",
    "city": "Petersburg",
    "postal": "99833"
  },
  {
    "lat": "56.8125",
    "lng": "-132.9555556",
    "id": 6257102,
    "name": "Petersburg Rexall Drug",
    "phone": "(907) 772-3265",
    "address": "PO Box 1209",
    "state": "AK",
    "city": "Petersburg",
    "postal": "99833"
  },
  {
    "lat": "39.9035102",
    "lng": "-95.8021341",
    "id": 6257103,
    "name": "Pharmaceutical Associates II",
    "phone": "7852843414",
    "address": "934 Main Street",
    "state": "KS",
    "city": "Sabetha",
    "postal": "66534"
  },
  {
    "lat": "32.4078802",
    "lng": "-87.0202958",
    "id": 6257104,
    "name": "Pilcher-McBryde Drug Company",
    "phone": "334-875-7208",
    "address": "101 Broad St",
    "state": "AL",
    "city": "Selma",
    "postal": "36701"
  },
  {
    "lat": "26.091254",
    "lng": "-80.2502153",
    "id": 6257105,
    "name": "PillBox Pharmacy Davie",
    "phone": "(954) 475-7455",
    "address": "7701 Nova Drive",
    "state": "FL",
    "city": "Davie",
    "postal": "33324"
  },
  {
    "lat": "26.0229094",
    "lng": "-80.3105477",
    "id": 6257106,
    "name": "Pillbox Pharmacy Pembroke Pines",
    "phone": "(954) 432-7455",
    "address": "1700 NW 122nd Terrace",
    "state": "FL",
    "city": "Pembroke Pines",
    "postal": "33026"
  },
  {
    "lat": "26.008236",
    "lng": "-80.3805266",
    "id": 6257107,
    "name": "Pillbox Pharmacy Pines West",
    "phone": "(954) 443-7455",
    "address": "17529 Pines Blvd",
    "state": "FL",
    "city": "Pembroke Pines",
    "postal": "33029"
  },
  {
    "lat": "26.0942594",
    "lng": "-80.3691635",
    "id": 6257108,
    "name": "Pillbox Pharmacy Weston",
    "phone": "(954) 389-7455",
    "address": "1932 Weston Road",
    "state": "FL",
    "city": "Weston",
    "postal": "33326"
  },
  {
    "lat": "47.4575659",
    "lng": "-114.8802092",
    "id": 6257109,
    "name": "Plains Drug",
    "phone": "(406) 826-3552",
    "address": "214 East Railroad Street",
    "state": "MT",
    "city": "Plains",
    "postal": "59859"
  },
  {
    "lat": "33.6221808",
    "lng": "-88.6589752",
    "id": 6257110,
    "name": "Point City Drugs",
    "phone": "6624950008",
    "address": "7683 Highway 45 Alternate N",
    "state": "MS",
    "city": "West Point",
    "postal": "39773"
  },
  {
    "lat": "40.511301",
    "lng": "-80.2129471",
    "id": 6257111,
    "name": "Porter's Compounding Pharmacy",
    "phone": "(412)264-2230",
    "address": "935 Beaver Grade Road",
    "state": "PA",
    "city": "Moon Township",
    "postal": "15108"
  },
  {
    "lat": "26.1247747",
    "lng": "-80.2418028",
    "id": 6257112,
    "name": "Prescription Pad Pharmacy",
    "phone": "(954) 791-2000",
    "address": "333 NW 70 Avenue",
    "address2": "Suite 102",
    "state": "FL",
    "city": "Plantation",
    "postal": "33317"
  },
  {
    "lat": "38.8966681",
    "lng": "-77.1311238",
    "id": 6257113,
    "name": "Preston's Pharmacy",
    "phone": "(703) 522-3412",
    "address": "5101 Lee Highway",
    "state": "VA",
    "city": "Arlington",
    "postal": "22207"
  },
  {
    "lat": "37.1085956",
    "lng": "-87.882418",
    "id": 6257114,
    "name": "Princeton Drug Store",
    "phone": "270-365-5585",
    "address": "103 W Main St.",
    "state": "KY",
    "city": "Princeton",
    "postal": "42445"
  },
  {
    "lat": "34.068687",
    "lng": "-117.2853714",
    "id": 6257115,
    "name": "Radiance Pharmacy",
    "phone": "(909) 333-4567",
    "address": "1823 Commercenter W",
    "state": "CA",
    "city": "San Bernardino",
    "postal": "92408"
  },
  {
    "lat": "34.0438813",
    "lng": "-118.4219237",
    "id": 6257116,
    "name": "Rancho Park Pharmacy",
    "phone": "(310) 475-3040",
    "address": "10587 W Pico Blvd",
    "state": "CA",
    "city": "Los Angeles",
    "postal": "90064"
  },
  {
    "lat": "34.174196",
    "lng": "-97.1391767",
    "id": 6257117,
    "name": "Reed Family Pharmacy",
    "phone": "(580) 223-7636",
    "address": "814 W Broadway",
    "state": "OK",
    "city": "Ardmore",
    "postal": "73401"
  },
  {
    "lat": "34.5585693",
    "lng": "-87.0005258",
    "id": 6257118,
    "name": "River City Pharmacy",
    "phone": "2564455400",
    "address": "2717 Spring Ave SW",
    "state": "AL",
    "city": "Decatur",
    "postal": "35603"
  },
  {
    "lat": "44.0732478",
    "lng": "-103.2320442",
    "id": 6257119,
    "name": "Rushmore Compounding Pharmacy",
    "phone": "6057210831",
    "address": "1308 Mt. Rushmore Rd",
    "state": "SD",
    "city": "Rapid City",
    "postal": "57701"
  },
  {
    "lat": "35.160978",
    "lng": "-80.7400635",
    "id": 6257120,
    "name": "RX Clinic Pharmacy",
    "phone": "(704) 537-0909",
    "address": "7308 E. Independence Blvd",
    "address2": "Suite I",
    "state": "NC",
    "city": "Charlotte",
    "postal": "28227"
  },
  {
    "lat": "41.1612857",
    "lng": "-80.0899347",
    "id": 6257121,
    "name": "Rx Xpress Health Mart Pharmacy",
    "phone": "(704) 537-0909",
    "address": "111 Mill Street",
    "state": "PA",
    "city": "Grove City",
    "postal": "16127"
  },
  {
    "lat": "34.0605565",
    "lng": "-117.9457235",
    "id": 6257122,
    "name": "San Gabriel Medical Pharmacy",
    "phone": "(626) 960-8696",
    "address": "1250 S Sunset Ave",
    "address2": "Suite 207",
    "state": "CA",
    "city": "West Covina",
    "postal": "91790"
  },
  {
    "lat": "36.8516301",
    "lng": "-87.4874013",
    "id": 6257123,
    "name": "Save More Drugs Hopkinsville",
    "phone": "270-885-5515",
    "address": "2208 Ft. Campbell Blvd.",
    "state": "KY",
    "city": "Hopkinsville",
    "postal": "42240"
  },
  {
    "lat": "36.397553",
    "lng": "-97.8770899",
    "id": 6257124,
    "name": "Scheffe Prescription Shops",
    "phone": "(580) 233-2152",
    "address": "127 East Randolph",
    "state": "OK",
    "city": "Enid",
    "postal": "73701"
  },
  {
    "lat": "36.2369304",
    "lng": "-90.0420242",
    "id": 6257125,
    "name": "Semo Drug",
    "phone": "(573) 888-8880",
    "address": "1300 First Street",
    "state": "MO",
    "city": "Kennett",
    "postal": "63857"
  },
  {
    "lat": "44.3679297",
    "lng": "-100.3744992",
    "id": 6257126,
    "name": "Shane's Pharmacy",
    "phone": "(605) 223-9200",
    "address": "202 Island Drive",
    "address2": "Suite 2",
    "state": "SD",
    "city": "Fort Pierre",
    "postal": "57532"
  },
  {
    "lat": "40.8926518",
    "lng": "-74.1578975",
    "id": 6257127,
    "name": "Sheefa Pharmacy",
    "phone": "(973) 345-4242",
    "address": "1040 Main St.",
    "state": "NJ",
    "city": "Paterson",
    "postal": "7503"
  },
  {
    "lat": "39.4440747",
    "lng": "-119.7692946",
    "id": 6257128,
    "name": "Sierra Compounding Pharmacy",
    "phone": "(775) 853-3500",
    "address": "9738 S. Virgina St.",
    "address2": "Suite G",
    "state": "NV",
    "city": "Reno",
    "postal": "89511"
  },
  {
    "lat": "40.5729914",
    "lng": "-111.9764224",
    "id": 6257129,
    "name": "Sojo Family Pharmacy",
    "phone": "385-274-0098",
    "address": "3583 West 9800 South",
    "address2": "Suite 101",
    "state": "UT",
    "city": "South Jordan",
    "postal": "84095"
  },
  {
    "lat": "34.8731897",
    "lng": "-84.3133185",
    "id": 6257130,
    "name": "Southern Drug Co.",
    "phone": "7066324448",
    "address": "4075 E. First St.",
    "state": "GA",
    "city": "Blue Ridge",
    "postal": "30513"
  },
  {
    "lat": "35.8090405",
    "lng": "-90.6685982",
    "id": 6257131,
    "name": "Southern Pharmacy",
    "phone": "870-972-1751",
    "address": "3001 Apache Dr.",
    "state": "AR",
    "city": "Jonesboro",
    "postal": "72401"
  },
  {
    "lat": "37.1434796",
    "lng": "-94.5113032",
    "id": 6257132,
    "name": "Stone's Corner Pharmacy",
    "phone": "(417) 624-6590",
    "address": "6059 N Main Street Road",
    "state": "MO",
    "city": "Webb City",
    "postal": "64870"
  },
  {
    "lat": "41.61092",
    "lng": "-94.0178678",
    "id": 6257133,
    "name": "Sumpter Pharmacy & Wellness",
    "phone": "(515) 993-1119",
    "address": "628 Nile Kinnick Dr. S.",
    "address2": "Suite 1",
    "state": "IA",
    "city": "Adel",
    "postal": "50003"
  },
  {
    "lat": "18.4988152",
    "lng": "-67.018247",
    "id": 6257134,
    "name": "Super Farmacia Rebeca",
    "phone": "(787) 402-4817",
    "address": "Ave. Noel Estrada #80",
    "state": "PR",
    "city": "Isabela",
    "postal": "662"
  },
  {
    "lat": "40.3248675",
    "lng": "-74.4699186",
    "id": 6257135,
    "name": "Texas Road Pharmacy - Monroe",
    "phone": "609.235.9368",
    "address": "355 Applegarth Rd.",
    "state": "NJ",
    "city": "Monroe Township",
    "postal": "8831"
  },
  {
    "lat": "40.4001878",
    "lng": "-74.3608092",
    "id": 6257136,
    "name": "Texas Road Pharmacy - Old Bridge",
    "phone": "(732) 723-1101",
    "address": "1183 Englishtown Rd",
    "state": "NJ",
    "city": "Old Bridge",
    "postal": "8857"
  },
  {
    "lat": "35.0108596",
    "lng": "-85.7053922",
    "id": 6257137,
    "name": "The Drug Store",
    "phone": "4238376855",
    "address": "335 S Cedar Ave",
    "state": "TN",
    "city": "South Pittsburg",
    "postal": "37380"
  },
  {
    "lat": "38.8654436",
    "lng": "-90.0814069",
    "id": 6257138,
    "name": "The Medicine Shoppe - Wood River",
    "phone": "(618) 259-0085",
    "address": "901 East Edwardsville Road",
    "state": "IL",
    "city": "Wood River",
    "postal": "62095"
  },
  {
    "lat": "39.9427616",
    "lng": "-76.7057375",
    "id": 6257139,
    "name": "The Medicine Shoppe - York",
    "phone": "(717) 846-0500",
    "address": "1698 S. Queen Street",
    "state": "PA",
    "city": "York",
    "postal": "17403"
  },
  {
    "lat": "38.779134",
    "lng": "-90.4875674",
    "id": 6257140,
    "name": "The Medicine Shoppe #0564",
    "phone": "6369495593",
    "address": "488 S. 5th St",
    "state": "MO",
    "city": "Saint Charles",
    "postal": "63301"
  },
  {
    "lat": "41.2751206",
    "lng": "-82.8428793",
    "id": 6257141,
    "name": "The Medicine Shoppe #1155",
    "phone": "4194833784",
    "address": "234 W Main St",
    "state": "OH",
    "city": "Bellevue",
    "postal": "44811"
  },
  {
    "lat": "30.5162491",
    "lng": "-92.0825698",
    "id": 6257142,
    "name": "The Medicine Shoppe #1198",
    "phone": "(337) 948-7703",
    "address": "1717 S Union Street",
    "address2": "Suite 2",
    "state": "LA",
    "city": "Opelousas",
    "postal": "70570"
  },
  {
    "lat": "33.3865926",
    "lng": "-79.2898721",
    "id": 6257143,
    "name": "The Medicine Shoppe #1386",
    "phone": "(843) 546-2880",
    "address": "1061 N. Fraser Street",
    "state": "SC",
    "city": "Georgetown",
    "postal": "29440"
  },
  {
    "lat": "44.6626814",
    "lng": "-84.7158415",
    "id": 6257144,
    "name": "The Medicine Shoppe #1675-MI",
    "phone": "(989) 348-2000",
    "address": "500 N James Street",
    "state": "MI",
    "city": "Grayling",
    "postal": "49738"
  },
  {
    "lat": "28.2252675",
    "lng": "-82.7236078",
    "id": 6257145,
    "name": "The Medicine Shoppe- FL",
    "phone": "(727) 845-5550",
    "address": "4539 Grand Blvd.",
    "state": "FL",
    "city": "New Port Richey",
    "postal": "34652"
  },
  {
    "lat": "44.0733292",
    "lng": "-103.2319479",
    "id": 6257146,
    "name": "The Medicine Shoppe Pharmacy #0461 R.Cty",
    "phone": "(605) 348-6305",
    "address": "1304 Mt Rushmore Rd",
    "state": "SD",
    "city": "Rapid City",
    "postal": "57701"
  },
  {
    "lat": "38.779134",
    "lng": "-90.4875674",
    "id": 6257147,
    "name": "The Medicine Shoppe Pharmacy St. Charles",
    "phone": "(636)949-5593",
    "address": "488 South Fifth St",
    "state": "MO",
    "city": "Saint Charles",
    "postal": "63301"
  },
  {
    "lat": "47.5955262",
    "lng": "-115.352418",
    "id": 6257148,
    "name": "Thompson Falls Family Pharmacy",
    "phone": "(406) 552-2706",
    "address": "1221 Main St.",
    "state": "MT",
    "city": "Thompson Falls",
    "postal": "59873"
  },
  {
    "lat": "30.4939051",
    "lng": "-90.7478413",
    "id": 6257149,
    "name": "Thrift Town Drug, LLC",
    "phone": "(225) 686-7241",
    "address": "29680 Frost Road",
    "state": "LA",
    "city": "Livingston",
    "postal": "70754"
  },
  {
    "lat": "36.5233787",
    "lng": "-76.1776946",
    "id": 6257150,
    "name": "Todds Pharmacy of Curritack",
    "phone": "2522320278",
    "address": "532 - A Caratoke HWy",
    "state": "NC",
    "city": "Moyock",
    "postal": "27958"
  },
  {
    "lat": "30.0892718",
    "lng": "-95.6199218",
    "id": 6257151,
    "name": "Tomball Healthmart Pharmacy",
    "phone": "(832) 559-6413",
    "address": "506 Graham Drive",
    "state": "TX",
    "city": "Tomball",
    "postal": "77375"
  }
]